"plays","downloads","loads","finishes","code","name","latitude","longitude","unique_loads","mean_percent","mean_seconds","sum_seconds","total_seconds","unique_viewers"
12229,82,28852,4620,US,"United States",39.7837304,-100.4458825,0,72,205,2512887,3480363,0
570,0,1356,211,CA,Canada,61.0666922,-107.9917071,0,71,232,132326,186317,0
495,0,1226,140,GB,"United Kingdom",54.7023545,-3.2765753,0,77,223,110563,142312,0
295,1,675,55,DE,Germany,51.0834196,10.4234469,0,71,318,93876,131408,0
293,0,722,90,AU,Australia,-24.7761086,134.755,0,72,246,72105,99869,0
262,0,494,103,PR,"Puerto Rico",0,0,0,80,174,45723,57089,0
233,0,527,75,FR,France,46.603354,1.8883335,0,77,271,63287,82026,0
224,0,493,27,BR,Brazil,-10.3333333,-53.2,0,56,272,60949,108050,0
197,0,353,78,MX,Mexico,22.5000485,-100.0000375,0,76,172,33983,44337,0
163,0,376,21,TR,Turkey,38.9597594,34.9249653,0,62,187,30585,49008,0
155,0,294,45,IT,Italy,42.6384261,12.674297,0,76,228,35414,46291,0
118,1,257,26,NL,Netherlands,52.5001698,5.7480821,0,67,351,41486,61154,0
111,0,185,33,NZ,"New Zealand",-41.5000831,172.8344077,0,74,263,29297,39403,0
101,0,219,38,ES,Spain,40.0028028,-4.003104,0,82,287,29062,35249,0
65,0,112,12,GR,Greece,39.000041,21.9999569,0,56,346,22514,39644,0
61,0,271,8,PL,Poland,52.0977181,19.0258159,0,72,307,18780,25893,0
57,0,119,9,BE,Belgium,50.6407351,4.66696,0,74,326,18599,25044,0
52,0,90,16,CH,Switzerland,46.7985624,8.2319736,0,66,205,10660,16056,0
47,0,128,13,IN,India,22.3511148,78.6677428,0,64,201,9448,14671,0
47,0,87,6,KR,"Republic of Korea",35.3985008,127.937111,0,64,214,10097,15578,0
44,0,95,9,IE,Ireland,52.865196,-7.9794599,0,84,377,16623,19776,0
44,0,92,12,IL,Israel,30.8760272,35.0015196,0,76,224,9897,12956,0
42,0,95,6,SE,Sweden,59.6749712,14.5208584,0,75,268,11295,15057,0
42,0,183,9,PT,Portugal,40.033265,-7.8896263,0,64,299,12563,19549,0
38,0,86,17,JP,Japan,36.5748441,139.2394179,0,79,192,7328,9244,0
37,0,82,9,AR,Argentina,-35.0039032,-65.2699754,0,59,164,6068,10179,0
37,0,104,11,ZA,"South Africa",-28.8166236,24.991639,0,79,137,5102,6407,0
37,0,140,2,RU,Russia,64.6863136,97.7453061,0,71,297,10989,15363,0
35,1,57,19,PE,Peru,-6.8699697,-75.0458515,0,80,163,5732,7153,0
35,0,93,10,PH,Philippines,12.7503486,122.7312101,0,75,187,6575,8673,0
34,0,78,3,DK,Denmark,55.670249,10.3333283,0,62,349,11869,19033,0
34,0,60,11,CL,Chile,-31.7613365,-71.3187697,0,53,148,5056,9522,0
31,0,51,12,CO,Colombia,2.8930783,-73.7845072,0,58,167,5180,8827,0
30,0,98,3,AE,"United Arab Emirates",24.0002488,53.9994829,0,45,170,5108,11171,0
28,0,78,6,SG,Singapore,1.357107,103.8194992,0,79,444,12449,15686,0
28,0,64,11,XX,Unknown,0,0,0,59,178,5001,8443,0
28,0,86,8,NO,Norway,60.5000209,9.0999715,0,74,299,8380,11238,0
22,0,43,6,TH,Thailand,14.8971921,100.83273,0,52,130,2881,5512,0
22,0,52,5,AT,Austria,47.2000338,13.199959,0,64,247,5449,8509,0
20,0,49,4,TW,Taiwan,23.9739374,120.9820179,0,61,123,2476,4036,0
19,0,243,1,LV,Latvia,56.8666904,24.5999717,0,60,493,9374,15539,0
17,0,44,2,SA,"Saudi Arabia",25.6242618,42.3528328,0,67,156,2657,3928,0
16,0,58,1,CZ,"Czech Republic",49.8167003,15.4749544,0,77,358,5733,7385,0
16,0,29,6,VE,Venezuela,8.0018709,-66.1109318,0,87,111,1781,2039,0
16,0,32,6,DO,"Dominican Republic",19.094175,-70.3012705,0,80,163,2617,3232,0
14,0,24,3,NG,Nigeria,9.6000359,7.9999721,0,71,424,5943,8311,0
14,0,21,5,HR,Croatia,45.5643442,17.0118954,0,89,435,6090,6775,0
13,0,24,3,HU,Hungary,47.1817585,19.5060937,0,36,109,1427,3903,0
13,0,27,0,EG,Egypt,26.2540493,29.2675469,0,63,138,1796,2845,0
13,0,23,2,LB,Lebanon,33.8750629,35.843409,0,63,500,6511,10245,0
12,0,20,1,SK,Slovakia,48.7411522,19.4528646,0,79,353,4244,5325,0
12,0,21,3,VN,Vietnam,13.2904027,108.4265113,0,76,241,2898,3795,0
12,0,33,2,PK,Pakistan,30.3308401,71.247499,0,35,122,1468,4110,0
11,0,28,2,RO,Romania,45.9852129,24.6859225,0,49,187,2062,4160,0
11,0,38,3,CR,"Costa Rica",10.2735633,-84.0739102,0,62,173,1903,3022,0
11,0,15,1,MV,Maldives,4.2218417,73.4867968,0,29,32,355,1218,0
11,0,26,1,UA,Ukraine,49.4871968,31.2718321,0,40,106,1169,2889,0
10,0,21,3,TT,"Trinidad and Tobago",10.8677845,-60.9821067,0,49,118,1184,2415,0
10,0,23,0,FI,Finland,63.2467777,25.9209164,0,49,147,1472,2998,0
9,0,14,2,UY,Uruguay,-32.8755548,-56.0201525,0,61,110,995,1624,0
9,0,15,6,JO,"Hashemite Kingdom of Jordan",31.1667049,36.941628,0,93,189,1704,1827,0
9,0,32,3,HK,"Hong Kong",0,0,0,43,108,972,2243,0
8,0,15,2,SI,Slovenia,45.8133113,14.4808369,0,92,504,4039,4379,0
8,0,17,5,EC,Ecuador,-1.3397668,-79.3666965,0,75,160,1282,1705,0
8,1,21,1,DZ,Algeria,28.0000272,2.9999825,0,77,95,765,983,0
8,0,9,0,LC,"Saint Lucia",13.8250489,-60.975036,0,60,218,1749,2869,0
8,0,13,2,MK,Macedonia,41.6171214,21.7168387,0,55,97,776,1389,0
8,0,52,1,MY,Malaysia,4.5693754,102.2656823,0,36,102,822,2232,0
7,0,10,3,IS,Iceland,64.9841821,-18.1059013,0,98,688,4818,4914,0
7,0,12,6,QA,Qatar,25.3336984,51.2295295,0,69,245,1721,2492,0
7,0,15,3,MA,Morocco,31.1728192,-7.3366043,0,38,132,926,2389,0
6,0,21,3,BG,Bulgaria,42.6073975,25.4856617,0,52,174,1044,1984,0
6,0,13,1,YE,Yemen,16.3471243,47.8915271,0,12,28,173,1405,0
6,0,21,1,PS,Palestine,31.649741,35.162072,0,52,336,2017,3838,0
6,0,20,4,MU,Mauritius,-20.2759451,57.5703566,0,83,577,3464,4156,0
6,0,17,2,RS,Serbia,44.1534121,20.55144,0,61,169,1017,1648,0
5,0,11,2,BD,Bangladesh,24.4768783,90.2932426,0,56,127,638,1131,0
5,0,6,3,SV,"El Salvador",13.8000382,-88.9140683,0,46,160,800,1716,0
5,0,15,0,LT,"Republic of Lithuania",55.3500003,23.7499998,0,56,259,1297,2313,0
5,0,7,0,BB,Barbados,13.1500331,-59.5250305,0,42,295,1478,3466,0
5,0,13,3,GT,Guatemala,15.6356088,-89.8988087,0,84,231,1159,1369,0
4,0,7,1,SD,Sudan,15.79125,30.371424078593,0,98,76,304,309,0
4,0,5,1,ET,Ethiopia,10.2116702,38.6521203,0,62,201,806,1297,0
4,0,22,3,A1,"Anonymous Proxy",0,0,0,76,136,546,715,0
4,0,4,1,BH,Bahrain,26.1551249,50.5344606,0,92,159,637,690,0
4,0,5,1,SY,Syria,34.6401861,39.0494106,0,64,203,812,1255,0
4,0,7,1,BZ,Belize,16.8259793,-88.7600927,0,67,172,688,1015,0
4,0,13,1,OM,Oman,21.0000287,57.0036901,0,83,240,962,1150,0
4,0,5,2,GH,Ghana,8.0300284,-1.0800271,0,72,148,592,812,0
4,0,11,0,PA,Panama,8.3096067,-81.3066246,0,84,255,1021,1205,0
3,0,9,1,KE,Kenya,1.4419683,38.4313975,0,93,190,571,609,0
3,0,4,2,NA,Namibia,-23.2335499,17.3231107,0,98,200,601,609,0
3,0,5,1,MT,Malta,35.9446731,14.383630615858,0,27,137,412,1492,0
3,0,4,1,UG,Uganda,1.5333554,32.2166578,0,52,71,214,406,0
3,0,11,0,CN,China,35.000074,104.999927,0,31,103,309,992,0
3,0,3,1,AZ,Azerbaijan,40.1636668,47.8207429,0,93,154,462,496,0
3,0,6,1,BS,Bahamas,24.7736546,-78.0000547,0,48,67,201,415,0
3,0,5,1,FJ,Fiji,-18.1239696,179.0122737,0,45,225,677,1492,0
3,0,3,0,LK,"Sri Lanka",7.878,80.7038245875,0,82,340,1021,1240,0
3,0,20,1,EU,Europe,0,0,0,50,82,247,487,0
3,0,3,2,GP,Guadeloupe,0,0,0,89,152,457,512,0
3,0,5,2,CY,Cyprus,34.9823018,33.1451285,0,98,655,1967,1995,0
2,0,2,1,KN,"Saint Kitts and Nevis",17.3462278,-62.7687277,0,56,115,230,406,0
2,0,2,0,KZ,Kazakhstan,47.2286086,65.2093197,0,76,451,903,1188,0
2,0,2,0,KH,Cambodia,13.5066394,104.869423,0,66,67,135,203,0
2,0,3,2,AL,Albania,41.000028,19.9999619,0,99,202,404,406,0
2,0,4,1,BM,Bermuda,32.3018217,-64.7603583,0,35,55,110,309,0
2,0,4,1,JM,Jamaica,18.1850507,-77.3947693,0,99,101,202,203,0
2,0,3,1,ZM,Zambia,-14.5186239,27.5599164,0,84,205,410,487,0
2,0,3,1,GE,Georgia,41.6809707,44.0287382,0,91,97,195,212,0
2,0,2,0,AW,Aruba,0,0,0,81,164,329,406,0
2,0,6,1,TN,Tunisia,33.8439408,9.400138,0,61,125,250,406,0
1,0,1,1,SX,"Sint Maarten",18.0423736,-63.0549948,0,99,202,202,203,0
1,0,4,1,NP,Nepal,28.1083178,84.0916787,0,99,202,202,203,0
1,0,7,0,IQ,Iraq,33.0955793,44.1749775,0,0,0,0,0,0
1,0,4,1,DM,Dominica,15.4113138,-61.3653618,0,99,202,202,203,0
1,0,2,0,ME,Montenegro,43.0285558,19.291739,0,8,25,25,284,0
1,0,1,0,BO,Bolivia,-17.0568696,-64.9912286,0,88,180,180,203,0
1,0,4,0,EE,Estonia,58.7523778,25.3319078,0,82,233,233,284,0
1,0,2,1,ID,Indonesia,-4.7993356,114.5632032,0,99,202,202,203,0
1,0,1,0,BN,Brunei,4.4137155,114.5653908,0,85,91,91,106,0
1,0,1,0,RW,Rwanda,-1.9646631,30.0644358,0,93,522,522,557,0
1,0,1,0,KG,Kyrgyzstan,41.5089324,74.724091,0,35,72,72,203,0
1,0,2,0,KW,Kuwait,29.2733964,47.4979476,0,84,240,240,284,0
1,0,1,0,NC,"New Caledonia",0,0,0,90,309,309,341,0
1,0,2,1,HN,Honduras,15.0610686,-84.5978534,0,99,202,202,203,0
1,0,1,1,NE,Niger,17.7356214,9.3238432,0,99,202,202,203,0
1,0,1,0,RE,Réunion,0,0,0,50,54,54,106,0
1,0,2,1,MM,"Myanmar [Burma]",17.1750495,95.9999652,0,99,202,202,203,0
1,0,1,0,AF,Afghanistan,33.0000866,64.9998468,0,23,66,66,284,0
1,0,2,0,MR,Mauritania,20.2540382,-9.2399263,0,0,0,0,0,0
1,0,2,0,AM,Armenia,40.7696272,44.6736646,0,97,198,198,203,0
1,0,2,1,ZW,Zimbabwe,-18.4554963,29.7468414,0,99,202,202,203,0
1,0,3,0,BY,Belarus,53.4250605,27.6971358,0,0,0,0,0,0
1,0,2,1,GY,Guyana,4.8417097,-58.6416891,0,99,105,105,106,0
1,0,4,0,SZ,Swaziland,-26.5624806,31.3991317,0,0,0,0,0,0
1,0,1,1,CW,Curaçao,0,0,0,99,202,202,203,0
0,0,2,0,MO,Macao,0,0,0,0,0,0,0,0
0,0,5,0,NI,Nicaragua,12.3724928,-84.8700308,0,0,0,0,0,0
0,0,1,0,SR,Suriname,4.1413025,-56.0771187,0,0,0,0,0,0
0,0,8,0,IM,"Isle of Man",54.1936805,-4.5591148,0,0,0,0,0,0
0,0,1,0,SC,Seychelles,-4.6574977,55.4540146,0,0,0,0,0,0
0,0,1,0,VI,"U.S. Virgin Islands",0,0,0,0,0,0,0,0
0,0,2,0,PY,Paraguay,-23.3165935,-58.1693445,0,0,0,0,0,0
0,0,1,0,MQ,Martinique,0,0,0,0,0,0,0,0
0,2,13,0,HT,Haiti,19.1399952,-72.3570972,0,0,0,0,0,0
0,0,4,0,GU,Guam,13.5394645,144.8970036,0,0,0,0,0,0
0,0,1,0,GF,"French Guiana",0,0,0,0,0,0,0,0
0,0,1,0,GD,Grenada,12.1360374,-61.6904045,0,0,0,0,0,0
0,0,1,0,BW,Botswana,-23.1681782,24.5928742,0,0,0,0,0,0
0,0,1,0,LA,Laos,20.0171109,103.378253,0,0,0,0,0,0
0,0,1,0,JE,Jersey,49.2214561,-2.1358386,0,0,0,0,0,0
0,0,2,0,CU,Cuba,23.0131338,-80.8328748,0,0,0,0,0,0
0,0,1,0,SN,Senegal,14.4750607,-14.4529612,0,0,0,0,0,0
0,0,1,0,MZ,Mozambique,-19.302233,34.9144977,0,0,0,0,0,0
0,0,1,0,TZ,Tanzania,-6.5247123,35.7878438,0,0,0,0,0,0
0,0,1,0,BA,"Bosnia and Herzegovina",44.3092405,17.5859673,0,0,0,0,0,0
0,0,35,7,,Wn,0,0,0,71,0,9974,13889,0
"
",,,,,,,,,,,,,
